{
	"mensen": [
		{
			"id": "4b7d2195f964a520a5af2fe3",
			"name": "Mensa Rempartstraße",
			"location": {
				"address": "Rempartstr. 18",
				"crossStreet": "Albert-Ludwigs-Universität Freiburg",
				"lat": 47.99291433645503,
				"lng": 7.846400974117576,
				"postalCode": "79098",
				"cc": "DE",
				"city": "Freiburg im Breisgau",
				"country": "Deutschland"
			}
		},
		{
			"id": "4d590c0f296d5481e26554b1",
			"name": "Mensa Institutsviertel",
			"location": {
				"address": "Stefan-Meier-Str. 28 ",
				"crossStreet": "Universtät Freiburg Institutsviertel",
				"lat": 48.00153807711118,
				"lng": 7.845530821251679,
				"postalCode": "79104",
				"cc": "DE",
				"city": "Freiburg im Breisgau",
				"country": "Deutschland"
			}
		},
		{
			"id": "4f4619fbe4b0068c28a3d523",
			"name": "Mensa Littenweiler",
			"location": {
				"address": "Kunzenweg 29",
				"crossStreet": "PH Freiburg",
				"lat": 47.98126813220848,
				"lng": 7.893917929303483,
				"postalCode": "79117",
				"cc": "DE",
				"city": "Freiburg im Breisgau",
				"country": "Deutschland"
			}
		},
		{
			"id": "50bc96a7e4b0e7cd88cb0a84",
			"name": "Mensa Furtwangen",
			"location": {
				"address": "Gerwigstrasse 15",
				"crossStreet": "Hochschule Furtwangen",
				"lat": 48.05099182106993,
				"lng": 8.208535897145355,
				"cc": "DE",
				"postalCode": "78120",
				"city": "Furtwangen im Schwarzwald",
				"country": "Deutschland"
			}
		},
		{
			"id": "50ed76e2e4b018b45cf6ec81",
			"name": "Mensa Offenburg",
			"location": {
				"address": "Badstrasse 24",
				"crossStreet": "Hochschule Offenburg",
				"lat": 48.4583795896132,
				"lng": 7.941625198246175,
				"cc": "DE",
				"postalCode": "77652",
				"city": "Offenburg",
				"country": "Deutschland"
			}
		},
		{
			"id": "4f100db8e4b0958ebfac609d",
			"name": "Mensa Schwenningen",
			"location": {
				"address": "Karlstr. 19",
				"crossStreet": "Duale Hochschule Villingen-Schwenningen",
				"lat": 48.061105883381835,
				"lng": 8.534462721657041,
				"cc": "DE",
				"postalCode": "78054",
				"city": "Villingen-Schwenningen",
				"country": "Deutschland"
			}
		},
		{
			"id": "4f1b5686e4b0b4fde93eb292",
			"name": "Mensa Flugplatz",
			"location": {
				"address": "Georges-Köhler-Allee 82",
				"crossStreet": "Technische Fakultät der Albert-Ludwigs-Universität",
				"lat": 48.01313680371723,
				"lng": 7.8335535553115525,
				"cc": "DE",
				"postalCode": "79110",
				"city": "Freiburg im Breisgau",
				"country": "Deutschland"
			}
		},
		{
			"id": "4e731c1caeb74f9f4918daca",
			"name": "Musikkantine",
			"location": {
				"address": "Schwarzwaldstrasse 141",
				"crossStreet": "Hochschule Für Musik",
				"lat": 47.989068,
				"lng": 7.872526,
				"cc": "DE",
				"postalCode": "79102",
				"city": "Freiburg im Breisgau",
				"country": "Deutschland"
			}
		},
		{
			"id": "4d80a31ba4e23704b825b8cc",
			"name": "Haus zur lieben Hand",
			"location": {
				"address": "Löwenstraße 16",
				"crossStreet": "Albert-Ludwigs-Universität",
				"lat": 47.99379856224578,
				"lng": 7.847892329076373,
				"cc": "DE",
				"postalCode": "79098",
				"city": "Freiburg im Breisgau",
				"country": "Deutschland"
			}
		}
	]
}